{"name": "日本百名橋", "places": [{"name": "豊平橋", "latitude": 43.0555555, "longitude": 141.3644444, "address": "北海道札幌市豊平区", "color": 255}, {"name": "旭橋", "latitude": 43.7783333, "longitude": 142.36, "address": "北海道旭川市", "color": 255}, {"name": "幣舞橋", "latitude": 42.9811111, "longitude": 144.3855555, "address": "北海道釧路市", "color": 255}, {"name": "湊橋", "latitude": 40.5236111, "longitude": 141.5227777, "address": "青森県八戸市", "color": 16711680}, {"name": "上の橋", "latitude": 39.7052777, "longitude": 141.1563888, "address": "岩手県盛岡市", "color": 255}, {"name": "大橋", "latitude": 38.2580555, "longitude": 140.86, "address": "宮城県仙台市青葉区", "color": 255}, {"name": "蛇の崎橋", "latitude": 39.3177777, "longitude": 140.5652777, "address": "秋田県横手市", "color": 65280}, {"name": "臥龍橋", "latitude": 38.4044444, "longitude": 140.2330555, "address": "山形県寒河江市", "color": 65280}, {"name": "信夫橋", "latitude": 37.7444444, "longitude": 140.4633333, "address": "福島県福島市", "color": 16711680}, {"name": "十綱橋", "latitude": 37.8305555, "longitude": 140.4552777, "address": "福島県福島市", "color": 255}, {"name": "水府橋", "latitude": 36.3772222, "longitude": 140.4813888, "address": "茨城県水戸市", "color": 255}, {"name": "日光 神橋", "latitude": 36.7533333, "longitude": 139.6041666, "address": "栃木県日光市", "color": 255}, {"name": "大渡橋", "latitude": 36.4066666, "longitude": 139.05, "address": "群馬県前橋市", "color": 16711680}, {"name": "碓氷第三橋梁（めがね橋）", "latitude": 36.3580555, "longitude": 138.6983333, "address": "群馬県安中市", "color": 65280}, {"name": "秩父橋", "latitude": 36.0180555, "longitude": 139.0861111, "address": "埼玉県秩父市", "color": 255}, {"name": "水郷大橋", "latitude": 35.9083333, "longitude": 140.4908333, "address": "千葉県香取市", "color": 16711680}, {"name": "四谷見付橋", "latitude": 35.6858333, "longitude": 139.7305555, "address": "東京都新宿区", "color": 65280}, {"name": "氷川大橋", "latitude": 35.8075, "longitude": 139.0963888, "address": "東京都奥多摩町", "color": 16711680}, {"name": "両国橋", "latitude": 35.6941666, "longitude": 139.7888888, "address": "東京都墨田区", "color": 65280}, {"name": "常盤橋", "latitude": 35.6852777, "longitude": 139.7708333, "address": "東京都中央区", "color": 65280}, {"name": "日本橋", "latitude": 35.6838888, "longitude": 139.7744444, "address": "東京都中央区", "color": 65280}, {"name": "永代橋", "latitude": 35.6763888, "longitude": 139.7875, "address": "東京都中央区", "color": 65280}, {"name": "二重橋", "latitude": 35.68, "longitude": 139.7547222, "address": "東京都千代田区", "color": 255}, {"name": "八幡橋（弾正橋）", "latitude": 35.6719444, "longitude": 139.8005555, "address": "東京都江東区", "color": 65280}, {"name": "横浜ベイブリッジ", "latitude": 35.4547222, "longitude": 139.6741666, "address": "神奈川県横浜市中区", "color": 16711680}, {"name": "六郷橋", "latitude": 35.5363888, "longitude": 139.7083333, "address": "神奈川県川崎市多摩区", "color": 65280}, {"name": "馬入橋", "latitude": 35.3319444, "longitude": 139.3669444, "address": "神奈川県平塚市", "color": 255}, {"name": "万代橋", "latitude": 37.9197222, "longitude": 139.0530555, "address": "新潟県新潟市中央区", "color": 255}, {"name": "直江津橋", "latitude": 37.1744444, "longitude": 138.2486111, "address": "新潟県上越市", "color": 65280}, {"name": "愛本橋", "latitude": 36.8602777, "longitude": 137.5538888, "address": "富山県黒部市", "color": 16711680}, {"name": "越中 舟橋", "latitude": 36.6944444, "longitude": 137.2075, "address": "富山県富山市", "color": 255}, {"name": "犀川大橋", "latitude": 36.5586111, "longitude": 136.6502777, "address": "石川県金沢市", "color": 16711680}, {"name": "九十九橋", "latitude": 36.0630555, "longitude": 136.2113888, "address": "福井県福井市", "color": 16711680}, {"name": "甲斐の猿橋", "latitude": 35.6152777, "longitude": 138.9813888, "address": "山梨県大月市", "color": 255}, {"name": "中津橋", "latitude": 36.2708333, "longitude": 138.4180555, "address": "長野県佐久市", "color": 65280}, {"name": "桃介橋", "latitude": 35.6005555, "longitude": 137.6061111, "address": "長野県南木曽町", "color": 16711680}, {"name": "中橋", "latitude": 36.14, "longitude": 137.2591666, "address": "岐阜県高山市", "color": 65280}, {"name": "永保寺、無際橋", "latitude": 35.3466666, "longitude": 137.13, "address": "岐阜県多治見市", "color": 255}, {"name": "長良大橋", "latitude": 35.3619444, "longitude": 136.6886111, "address": "岐阜県岐阜市", "color": 65280}, {"name": "富士川橋", "latitude": 35.155, "longitude": 138.6241666, "address": "静岡県富士市", "color": 16711680}, {"name": "大井川橋", "latitude": 34.8316666, "longitude": 138.1455555, "address": "静岡県島田市", "color": 16711680}, {"name": "浜名橋", "latitude": 34.6936111, "longitude": 137.5869444, "address": "静岡県湖西市", "color": 65280}, {"name": "矢作橋", "latitude": 34.9594444, "longitude": 137.1497222, "address": "愛知県岡崎市", "color": 16711680}, {"name": "納屋橋", "latitude": 35.1677777, "longitude": 136.8922222, "address": "愛知県名古屋市中区", "color": 16711680}, {"name": "枇杷島橋", "latitude": 35.1922222, "longitude": 136.8675, "address": "愛知県清須市", "color": 65280}, {"name": "伊勢 宇治橋", "latitude": 34.4586111, "longitude": 136.7233333, "address": "三重県伊勢市", "color": 65280}, {"name": "瀬田唐橋", "latitude": 34.9730555, "longitude": 135.9066666, "address": "滋賀県大津市", "color": 65280}, {"name": "大宮橋", "latitude": 35.0716666, "longitude": 135.8622222, "address": "滋賀県大津市", "color": 16711680}, {"name": "三条大橋", "latitude": 35.0091666, "longitude": 135.7716666, "address": "京都府京都市中京区", "color": 65280}, {"name": "五条大橋", "latitude": 34.9955555, "longitude": 135.7677777, "address": "京都府京都市下京区", "color": 16711680}, {"name": "上賀茂神社 橋殿", "latitude": 35.0597222, "longitude": 135.7527777, "address": "京都府京都市北区", "color": 65280}, {"name": "渡月橋", "latitude": 35.0127777, "longitude": 135.6777777, "address": "京都府京都市西京区", "color": 65280}, {"name": "東福寺 偃月橋", "latitude": 34.9766666, "longitude": 135.7738888, "address": "京都府京都市東山区", "color": 65280}, {"name": "宇治橋", "latitude": 34.8930555, "longitude": 135.8061111, "address": "京都府宇治市", "color": 65280}, {"name": "上津屋橋（流れ橋）", "latitude": 34.8686111, "longitude": 135.7483333, "address": "京都府八幡市", "color": 255}, {"name": "泉大橋", "latitude": 34.7430555, "longitude": 135.8216666, "address": "京都府木津川市", "color": 255}, {"name": "長柄橋", "latitude": 34.7211111, "longitude": 135.51, "address": "大阪府大阪市北区、東淀川区", "color": 255}, {"name": "難波橋", "latitude": 34.6927777, "longitude": 135.5072222, "address": "大阪府大阪市中央区", "color": 65280}, {"name": "高麗橋", "latitude": 34.6891666, "longitude": 135.5097222, "address": "大阪府大阪市中央区", "color": 65280}, {"name": "淀屋橋", "latitude": 34.6930555, "longitude": 135.5011111, "address": "大阪府大阪市中央区", "color": 16711680}, {"name": "心斎橋", "latitude": 34.6744444, "longitude": 135.5002777, "address": "大阪府大阪市中央区", "color": 65280}, {"name": "住吉の反橋", "latitude": 34.6125, "longitude": 135.4930555, "address": "大阪府大阪市住吉区", "color": 16711680}, {"name": "明石海峡大橋", "latitude": 34.6177777, "longitude": 135.0222222, "address": "兵庫県明石市", "color": 255}, {"name": "餘部橋梁（余部鉄橋）", "latitude": 35.6494444, "longitude": 134.5597222, "address": "兵庫県香美町", "color": 16711680}, {"name": "神子畑橋", "latitude": 35.2425, "longitude": 134.7172222, "address": "兵庫県朝来市", "color": 255}, {"name": "武庫大橋", "latitude": 34.7319444, "longitude": 135.38, "address": "兵庫県西宮市", "color": 16711680}, {"name": "谷瀬の吊橋", "latitude": 34.1016666, "longitude": 135.7627777, "address": "奈良県十津川村", "color": 255}, {"name": "不老橋（三断橋）", "latitude": 34.1866666, "longitude": 135.1727777, "address": "和歌山県和歌山市", "color": 16711680}, {"name": "智頭橋", "latitude": 35.4994444, "longitude": 134.2280555, "address": "鳥取県鳥取市", "color": 65280}, {"name": "松江大橋", "latitude": 35.4677777, "longitude": 133.0552777, "address": "島根県松江市", "color": 16711680}, {"name": "瀬戸大橋", "latitude": 34.4305555, "longitude": 133.8058333, "address": "岡山県倉敷市", "color": 16711680}, {"name": "京橋", "latitude": 34.6580555, "longitude": 133.9330555, "address": "岡山県岡山市", "color": 65280}, {"name": "厳島 反橋", "latitude": 34.2958333, "longitude": 132.3197222, "address": "広島県廿日市市", "color": 16711680}, {"name": "元安橋", "latitude": 34.3941666, "longitude": 132.4538888, "address": "広島県広島市中区", "color": 255}, {"name": "錦帯橋", "latitude": 34.1675, "longitude": 132.1783333, "address": "山口県岩国市", "color": 65280}, {"name": "平安橋", "latitude": 34.4094444, "longitude": 131.3880555, "address": "山口県萩市", "color": 16711680}, {"name": "吉野川橋", "latitude": 34.0963888, "longitude": 134.555, "address": "徳島県徳島市", "color": 255}, {"name": "祖谷のかづら橋", "latitude": 33.8752777, "longitude": 133.8352777, "address": "徳島県三好市", "color": 65280}, {"name": "琴平 鞘橋", "latitude": 34.1858333, "longitude": 133.8216666, "address": "香川県琴平町", "color": 255}, {"name": "三架橋", "latitude": 34.1316666, "longitude": 133.6502777, "address": "香川県観音寺市", "color": 65280}, {"name": "長浜大橋", "latitude": 33.61, "longitude": 132.48, "address": "愛媛県大洲市", "color": 16711680}, {"name": "御幸の橋", "latitude": 33.5097222, "longitude": 132.7933333, "address": "愛媛県大洲市", "color": 65280}, {"name": "播磨屋橋", "latitude": 33.5597222, "longitude": 133.5430555, "address": "高知県高知市", "color": 16711680}, {"name": "一斗俵沈下橋", "latitude": 33.2847222, "longitude": 133.11, "address": "高知県四万十町", "color": 255}, {"name": "常盤橋", "latitude": 33.8863888, "longitude": 130.8775, "address": "福岡県北九州市小倉北区", "color": 255}, {"name": "筑後川昇開橋", "latitude": 33.215, "longitude": 130.3616666, "address": "佐賀県佐賀市", "color": 65280}, {"name": "長崎 眼鏡橋", "latitude": 32.7475, "longitude": 129.8808333, "address": "長崎県長崎市", "color": 65280}, {"name": "諫早 眼鏡橋", "latitude": 32.8455555, "longitude": 130.0491666, "address": "長崎県諫早市", "color": 65280}, {"name": "西海橋", "latitude": 33.0530555, "longitude": 129.7580555, "address": "長崎県西海市、佐世保市", "color": 16711680}, {"name": "祗園橋", "latitude": 32.4563888, "longitude": 130.1880555, "address": "熊本県天草市", "color": 255}, {"name": "通潤橋", "latitude": 32.6816666, "longitude": 130.9938888, "address": "熊本県山都町", "color": 255}, {"name": "呉橋", "latitude": 33.5255555, "longitude": 131.3733333, "address": "大分県宇佐市", "color": 16711680}, {"name": "耶馬溪橋", "latitude": 33.5030555, "longitude": 131.1702777, "address": "大分県中津市", "color": 16711680}, {"name": "虹澗橋", "latitude": 33.0097222, "longitude": 131.6352777, "address": "大分県豊後大野市、臼杵市", "color": 65280}, {"name": "橘橋", "latitude": 31.9058333, "longitude": 131.4202777, "address": "宮崎県宮崎市", "color": 16711680}, {"name": "西田橋", "latitude": 31.5886111, "longitude": 130.545, "address": "鹿児島県鹿児島市", "color": 16711680}, {"name": "天女橋", "latitude": 26.2183333, "longitude": 127.7186111, "address": "沖縄県那覇市", "color": 16711680}]}