{"name": "日本百名湯", "places": [{"name": "菅野温泉", "latitude": 43.3255555, "longitude": 143.0491666, "address": "北海道鹿追町", "color": 255}, {"name": "養老牛温泉", "latitude": 43.5872222, "longitude": 144.7183333, "address": "北海道中標津町", "color": 16711680}, {"name": "定山渓温泉", "latitude": 42.9644444, "longitude": 141.1625, "address": "北海道札幌市", "color": 65280}, {"name": "登別温泉", "latitude": 42.4947222, "longitude": 141.1436111, "address": "北海道登別市", "color": 255}, {"name": "洞爺湖温泉", "latitude": 42.5658333, "longitude": 140.8219444, "address": "北海道壮瞥町", "color": 255}, {"name": "ニセコ温泉郷", "latitude": 42.7980555, "longitude": 140.5980555, "address": "北海道ニセコ町", "color": 255}, {"name": "朝日温泉", "latitude": 42.9166666, "longitude": 140.4247222, "address": "北海道岩内町", "color": 65280}, {"name": "酸ヶ湯温泉", "latitude": 40.6502777, "longitude": 140.8508333, "address": "青森県青森市", "color": 16711680}, {"name": "蔦温泉", "latitude": 40.5969444, "longitude": 140.9530555, "address": "青森県十和田市", "color": 255}, {"name": "花巻南温泉峡", "latitude": 39.4652777, "longitude": 140.9916666, "address": "岩手県花巻市", "color": 255}, {"name": "夏油温泉", "latitude": 39.2125, "longitude": 140.8880555, "address": "岩手県北上市", "color": 255}, {"name": "須川高原温泉", "latitude": 38.9797222, "longitude": 140.7705555, "address": "岩手県一関市", "color": 16711680}, {"name": "鳴子温泉郷", "latitude": 38.7425, "longitude": 140.7172222, "address": "宮城県大崎市", "color": 65280}, {"name": "遠刈田温泉", "latitude": 38.1241666, "longitude": 140.5769444, "address": "宮城県蔵王町", "color": 65280}, {"name": "峩々温泉", "latitude": 38.1444444, "longitude": 140.5005555, "address": "宮城県川崎町", "color": 16711680}, {"name": "乳頭温泉郷", "latitude": 39.8041666, "longitude": 140.7980555, "address": "秋田県仙北市", "color": 16711680}, {"name": "後生掛温泉", "latitude": 39.9722222, "longitude": 140.8, "address": "秋田県鹿角市", "color": 65280}, {"name": "玉川温泉", "latitude": 39.9641666, "longitude": 140.7241666, "address": "秋田県仙北市", "color": 65280}, {"name": "秋ノ宮温泉郷", "latitude": 38.9597222, "longitude": 140.5366666, "address": "秋田県湯沢市", "color": 255}, {"name": "銀山温泉", "latitude": 38.57, "longitude": 140.5308333, "address": "山形県尾花沢市", "color": 65280}, {"name": "瀬見温泉", "latitude": 38.7541666, "longitude": 140.4127777, "address": "山形県最上町", "color": 255}, {"name": "赤倉温泉", "latitude": 38.7102777, "longitude": 140.5530555, "address": "山形県最上町", "color": 65280}, {"name": "東山温泉", "latitude": 37.4780555, "longitude": 139.9625, "address": "福島県会津若松市", "color": 16711680}, {"name": "飯坂温泉", "latitude": 37.8319444, "longitude": 140.4502777, "address": "福島県福島市", "color": 16711680}, {"name": "二岐温泉", "latitude": 37.2416666, "longitude": 139.9883333, "address": "福島県天栄村", "color": 255}, {"name": "那須温泉郷", "latitude": 37.0972222, "longitude": 140.0013888, "address": "栃木県那須町", "color": 255}, {"name": "塩原温泉郷", "latitude": 36.9705555, "longitude": 139.8188888, "address": "栃木県那須塩原市", "color": 16711680}, {"name": "鬼怒川温泉", "latitude": 36.8358333, "longitude": 139.7197222, "address": "栃木県日光市", "color": 255}, {"name": "奥鬼怒温泉郷", "latitude": 36.8661111, "longitude": 139.3883333, "address": "栃木県日光市", "color": 16711680}, {"name": "草津温泉", "latitude": 36.6227777, "longitude": 138.5966666, "address": "群馬県草津町", "color": 255}, {"name": "伊香保温泉", "latitude": 36.4969444, "longitude": 138.9155555, "address": "群馬県渋川市", "color": 255}, {"name": "四万温泉", "latitude": 36.6816666, "longitude": 138.7802777, "address": "群馬県中之条町", "color": 255}, {"name": "法師温泉", "latitude": 36.7438888, "longitude": 138.8297222, "address": "群馬県みなかみ町", "color": 16711680}, {"name": "箱根湯本温泉", "latitude": 35.2291666, "longitude": 139.0986111, "address": "神奈川県箱根町", "color": 16711680}, {"name": "塔之沢温泉", "latitude": 35.2322222, "longitude": 139.0922222, "address": "神奈川県箱根町", "color": 16711680}, {"name": "芦之湯温泉", "latitude": 35.22, "longitude": 139.0413888, "address": "神奈川県箱根町", "color": 16711680}, {"name": "湯河原温泉", "latitude": 35.1472222, "longitude": 139.0716666, "address": "神奈川県湯河原町", "color": 255}, {"name": "越後湯沢温泉", "latitude": 36.9347222, "longitude": 138.8066666, "address": "新潟県湯沢町", "color": 16711680}, {"name": "松之山温泉", "latitude": 37.0647222, "longitude": 138.5994444, "address": "新潟県十日町市", "color": 255}, {"name": "大牧温泉", "latitude": 36.5005555, "longitude": 136.9941666, "address": "富山県南砺市", "color": 16711680}, {"name": "黒部峡谷温泉郷", "latitude": 36.8172222, "longitude": 137.5836111, "address": "富山県黒部市", "color": 65280}, {"name": "山中温泉", "latitude": 36.2461111, "longitude": 136.3747222, "address": "石川県加賀市", "color": 16711680}, {"name": "山代温泉", "latitude": 36.2897222, "longitude": 136.3647222, "address": "石川県加賀市", "color": 65280}, {"name": "粟津温泉", "latitude": 36.3305555, "longitude": 136.4461111, "address": "石川県小松市", "color": 65280}, {"name": "奈良田温泉", "latitude": 35.5766666, "longitude": 138.3005555, "address": "山梨県早川町", "color": 16711680}, {"name": "西山温泉", "latitude": 35.5544444, "longitude": 138.3069444, "address": "山梨県早川町", "color": 255}, {"name": "野沢温泉", "latitude": 36.9247222, "longitude": 138.4488888, "address": "長野県野沢温泉村", "color": 255}, {"name": "湯田中温泉", "latitude": 36.74, "longitude": 138.4202777, "address": "長野県山ノ内町", "color": 65280}, {"name": "別所温泉", "latitude": 36.3491666, "longitude": 138.1541666, "address": "長野県上田市", "color": 255}, {"name": "中房温泉", "latitude": 36.3944444, "longitude": 137.7469444, "address": "長野県安曇野市", "color": 65280}, {"name": "白骨温泉", "latitude": 36.1536111, "longitude": 137.6263888, "address": "長野県松本市", "color": 255}, {"name": "小谷温泉", "latitude": 36.8619444, "longitude": 137.9805555, "address": "長野県小谷村", "color": 16711680}, {"name": "下呂温泉", "latitude": 35.8075, "longitude": 137.2402777, "address": "岐阜県下呂市", "color": 16711680}, {"name": "福地温泉", "latitude": 36.2247222, "longitude": 137.5311111, "address": "岐阜県高山市", "color": 65280}, {"name": "熱海温泉", "latitude": 35.0975, "longitude": 139.0733333, "address": "静岡県熱海市", "color": 65280}, {"name": "伊東温泉", "latitude": 34.9622222, "longitude": 139.0911111, "address": "静岡県伊東市", "color": 255}, {"name": "修善寺温泉", "latitude": 34.9697222, "longitude": 138.9272222, "address": "静岡県伊豆市", "color": 16711680}, {"name": "湯谷温泉", "latitude": 34.9677777, "longitude": 137.6141666, "address": "愛知県新城市", "color": 65280}, {"name": "榊原温泉", "latitude": 34.7086111, "longitude": 136.3697222, "address": "三重県津市", "color": 16711680}, {"name": "木津温泉", "latitude": 35.6505555, "longitude": 134.9738888, "address": "京都府京丹後市", "color": 65280}, {"name": "有馬温泉", "latitude": 34.7966666, "longitude": 135.2502777, "address": "兵庫県神戸市", "color": 16711680}, {"name": "城崎温泉", "latitude": 35.6263888, "longitude": 134.8097222, "address": "兵庫県豊岡市", "color": 65280}, {"name": "湯村温泉", "latitude": 35.5547222, "longitude": 134.4880555, "address": "兵庫県新温泉町", "color": 255}, {"name": "十津川温泉", "latitude": 33.9402777, "longitude": 135.7688888, "address": "奈良県十津川村", "color": 255}, {"name": "南紀白浜温泉", "latitude": 33.6719444, "longitude": 135.3338888, "address": "和歌山県白浜町", "color": 65280}, {"name": "南紀勝浦温泉", "latitude": 33.6266666, "longitude": 135.9511111, "address": "和歌山県那智勝浦町", "color": 16711680}, {"name": "湯の峰温泉", "latitude": 33.8291666, "longitude": 135.7575, "address": "和歌山県田辺市", "color": 16711680}, {"name": "龍神温泉", "latitude": 33.9558333, "longitude": 135.5622222, "address": "和歌山県田辺市", "color": 65280}, {"name": "奥津温泉", "latitude": 35.2233333, "longitude": 133.9202777, "address": "岡山県鏡野町", "color": 255}, {"name": "湯原温泉郷", "latitude": 35.2036111, "longitude": 133.7319444, "address": "岡山県真庭市", "color": 255}, {"name": "三朝温泉", "latitude": 35.4113888, "longitude": 133.895, "address": "鳥取県三朝町", "color": 255}, {"name": "岩井温泉", "latitude": 35.5555555, "longitude": 134.3622222, "address": "鳥取県岩美町", "color": 255}, {"name": "関金温泉", "latitude": 35.3636111, "longitude": 133.7641666, "address": "鳥取県倉吉市", "color": 16711680}, {"name": "玉造温泉", "latitude": 35.4163888, "longitude": 133.01, "address": "島根県松江市", "color": 255}, {"name": "有福温泉", "latitude": 34.9405555, "longitude": 132.2005555, "address": "島根県江津市", "color": 65280}, {"name": "温泉津温泉", "latitude": 35.0919444, "longitude": 132.3469444, "address": "島根県大田市", "color": 255}, {"name": "湯田温泉", "latitude": 34.1644444, "longitude": 131.455, "address": "山口県山口市", "color": 65280}, {"name": "長門湯本温泉", "latitude": 34.3283333, "longitude": 131.1725, "address": "山口県長門市", "color": 16711680}, {"name": "祖谷温泉", "latitude": 33.9208333, "longitude": 133.8147222, "address": "徳島県三好市", "color": 65280}, {"name": "道後温泉", "latitude": 33.8527777, "longitude": 132.7883333, "address": "愛媛県松山市", "color": 65280}, {"name": "二日市温泉", "latitude": 33.4908333, "longitude": 130.5144444, "address": "福岡県筑紫野市", "color": 16711680}, {"name": "嬉野温泉", "latitude": 33.0969444, "longitude": 129.9852777, "address": "佐賀県嬉野市", "color": 65280}, {"name": "武雄温泉", "latitude": 33.1963888, "longitude": 130.0144444, "address": "佐賀県武雄市", "color": 16711680}, {"name": "雲仙温泉", "latitude": 32.74, "longitude": 130.2605555, "address": "長崎県雲仙市", "color": 65280}, {"name": "小浜温泉", "latitude": 32.7241666, "longitude": 130.2072222, "address": "長崎県雲仙市", "color": 255}, {"name": "黒川温泉", "latitude": 33.0775, "longitude": 131.1427777, "address": "熊本県小国町", "color": 65280}, {"name": "地獄温泉", "latitude": 32.8605555, "longitude": 131.0358333, "address": "熊本県南阿蘇村", "color": 16711680}, {"name": "垂玉温泉", "latitude": 32.8622222, "longitude": 131.0355555, "address": "熊本県南阿蘇村", "color": 16711680}, {"name": "杖立温泉", "latitude": 33.1833333, "longitude": 131.0325, "address": "熊本県小国町", "color": 16711680}, {"name": "日奈久温泉", "latitude": 32.4325, "longitude": 130.575, "address": "熊本県八代市", "color": 65280}, {"name": "鉄輪温泉", "latitude": 33.3158333, "longitude": 131.4752777, "address": "大分県別府市", "color": 65280}, {"name": "明礬温泉", "latitude": 33.3175, "longitude": 131.4516666, "address": "大分県別府市", "color": 255}, {"name": "由布院温泉", "latitude": 33.2663888, "longitude": 131.3625, "address": "大分県由布市", "color": 16711680}, {"name": "川底温泉", "latitude": 33.1869444, "longitude": 131.1466666, "address": "大分県九重町", "color": 16711680}, {"name": "長湯温泉", "latitude": 33.0694444, "longitude": 131.3836111, "address": "大分県竹田市", "color": 16711680}, {"name": "京町温泉", "latitude": 32.0377777, "longitude": 130.7541666, "address": "宮崎県えびの市", "color": 16711680}, {"name": "指宿温泉", "latitude": 31.2291666, "longitude": 130.6522222, "address": "鹿児島県指宿市", "color": 65280}, {"name": "霧島温泉郷", "latitude": 31.8944444, "longitude": 130.8283333, "address": "鹿児島県霧島市", "color": 16711680}, {"name": "新川渓谷温泉郷", "latitude": 31.82, "longitude": 130.7569444, "address": "鹿児島県霧島市", "color": 255}, {"name": "栗野岳温泉", "latitude": 31.9555555, "longitude": 130.78, "address": "鹿児島県湧水町", "color": 255}]}