{"name": "日本の都市公園100選", "places": [{"name": "名称", "latitude": "北緯", "longitude": "東経", "address": "所在地", "color": {"red": 1, "blue": 1, "green": 1}}, {"name": "常磐公園", "latitude": "43.775", "longitude": "142.3572222", "address": "北海道旭川市", "color": {"red": 0, "blue": 1, "green": 1}}, {"name": "北海道子どもの国", "latitude": "43.5213888", "longitude": "141.9383333", "address": "北海道砂川市", "color": {"red": 1, "blue": 1, "green": 1}}, {"name": "大通公園", "latitude": "43.0594444", "longitude": "141.3447222", "address": "北海道札幌市中央区", "color": {"red": 1, "blue": 1, "green": 1}}, {"name": "中島公園", "latitude": "43.0447222", "longitude": "141.3544444", "address": "北海道札幌市中央区", "color": {"red": 1, "blue": 1, "green": 1}}, {"name": "鷹揚公園（弘前公園）", "latitude": "40.6083333", "longitude": "140.4652777", "address": "青森県弘前市", "color": {"red": 0, "blue": 1, "green": 0}}, {"name": "合浦公園", "latitude": "40.8308333", "longitude": "140.7791666", "address": "青森県青森市", "color": {"red": 0, "blue": 0, "green": 1}}, {"name": "岩手公園", "latitude": "39.7005555", "longitude": "141.1519444", "address": "岩手県盛岡市", "color": {"red": 1, "blue": 1, "green": 0}}, {"name": "高田松原公園", "latitude": "39.0055555", "longitude": "141.635", "address": "岩手県陸前高田市", "color": {"red": 0, "blue": 0, "green": 1}}, {"name": "松島公園", "latitude": "38.3697222", "longitude": "141.0641666", "address": "宮城県松島町、塩籠町、七ヶ浜町、利府町", "color": {"red": 1, "blue": 0, "green": 0}}, {"name": "榴岡公園", "latitude": "38.2605555", "longitude": "140.8961111", "address": "宮城県仙台市宮城野区", "color": {"red": 0, "blue": 1, "green": 0}}, {"name": "千秋公園", "latitude": "39.7225", "longitude": "140.1241666", "address": "秋田県秋田市", "color": {"red": 1, "blue": 0, "green": 0}}, {"name": "霞城公園", "latitude": "38.2555555", "longitude": "140.3280555", "address": "山形県山形市", "color": {"red": 1, "blue": 1, "green": 1}}, {"name": "日和山公園", "latitude": "38.9191666", "longitude": "139.8277777", "address": "山形県酒田市", "color": {"red": 0, "blue": 1, "green": 0}}, {"name": "翠ヶ丘公園", "latitude": "37.2908333", "longitude": "140.3816666", "address": "福島県須賀川市", "color": {"red": 1, "blue": 1, "green": 0}}, {"name": "偕楽園", "latitude": "36.375", "longitude": "140.4530555", "address": "茨城県水戸市", "color": {"red": 1, "blue": 1, "green": 0}}, {"name": "長峰公園", "latitude": "36.8113888", "longitude": "139.9375", "address": "栃木県矢板市", "color": {"red": 0, "blue": 1, "green": 0}}, {"name": "栃木県井頭公園", "latitude": "36.4961111", "longitude": "139.9955555", "address": "栃木県真岡市", "color": {"red": 1, "blue": 1, "green": 1}}, {"name": "華蔵寺公園", "latitude": "36.3422222", "longitude": "139.1977777", "address": "群馬県伊勢崎市", "color": {"red": 1, "blue": 1, "green": 1}}, {"name": "敷島公園", "latitude": "36.4163888", "longitude": "139.0516666", "address": "群馬県前橋市", "color": {"red": 0, "blue": 1, "green": 0}}, {"name": "大宮公園", "latitude": "35.9180555", "longitude": "139.6316666", "address": "埼玉県さいたま市大宮区", "color": {"red": 0, "blue": 0, "green": 1}}, {"name": "国営武蔵丘森林公園", "latitude": "36.0913888", "longitude": "139.3716666", "address": "埼玉県滑川町", "color": {"red": 1, "blue": 0, "green": 1}}, {"name": "さきたま古墳公園", "latitude": "36.1263888", "longitude": "139.4780555", "address": "埼玉県行田市", "color": {"red": 1, "blue": 1, "green": 1}}, {"name": "川口グリーンセンター", "latitude": "35.8455555", "longitude": "139.7275", "address": "埼玉県川口市", "color": {"red": 0, "blue": 0, "green": 0}}, {"name": "昭和の森", "latitude": "35.5177777", "longitude": "140.2797222", "address": "千葉県千葉市緑区", "color": {"red": 0, "blue": 1, "green": 0}}, {"name": "富津公園", "latitude": "35.3116666", "longitude": "139.7983333", "address": "千葉県富津市", "color": {"red": 1, "blue": 1, "green": 1}}, {"name": "音無親水公園", "latitude": "35.7527777", "longitude": "139.7363888", "address": "東京都北区", "color": {"red": 1, "blue": 1, "green": 1}}, {"name": "東京都立日比谷公園", "latitude": "35.6738888", "longitude": "139.7561111", "address": "東京都千代田区", "color": {"red": 1, "blue": 0, "green": 0}}, {"name": "東京都立上野恩賜公園", "latitude": "35.7166666", "longitude": "139.7741666", "address": "東京都台東区", "color": {"red": 1, "blue": 1, "green": 1}}, {"name": "東京都立水元公園", "latitude": "35.7805555", "longitude": "139.8733333", "address": "東京都葛飾区", "color": {"red": 1, "blue": 0, "green": 0}}, {"name": "代々木公園", "latitude": "35.6697222", "longitude": "139.6955555", "address": "東京都渋谷区", "color": {"red": 1, "blue": 1, "green": 0}}, {"name": "国営昭和記念公園", "latitude": "35.7111111", "longitude": "139.3947222", "address": "東京都立川市、昭島市", "color": {"red": 1, "blue": 0, "green": 0}}, {"name": "東高根森林公園", "latitude": "35.6047222", "longitude": "139.5866666", "address": "神奈川県川崎市宮前区", "color": {"red": 1, "blue": 0, "green": 1}}, {"name": "山下公園", "latitude": "35.4461111", "longitude": "139.6494444", "address": "神奈川県横浜市中区", "color": {"red": 1, "blue": 1, "green": 1}}, {"name": "港の見える丘公園", "latitude": "35.4408333", "longitude": "139.6538888", "address": "神奈川県横浜市中区", "color": {"red": 1, "blue": 1, "green": 0}}, {"name": "三笠公園", "latitude": "35.2861111", "longitude": "139.6736111", "address": "神奈川県横須賀市", "color": {"red": 1, "blue": 0, "green": 0}}, {"name": "秦野中央運動公園", "latitude": "35.3802777", "longitude": "139.2022222", "address": "神奈川県秦野市", "color": {"red": 0, "blue": 0, "green": 0}}, {"name": "七沢森林公園", "latitude": "35.4480555", "longitude": "139.3011111", "address": "神奈川県厚木市", "color": {"red": 1, "blue": 1, "green": 0}}, {"name": "五十公野公園", "latitude": "37.9380555", "longitude": "139.3552777", "address": "新潟県新発田市", "color": {"red": 1, "blue": 1, "green": 0}}, {"name": "白山公園", "latitude": "37.915", "longitude": "139.0386111", "address": "新潟県新潟市", "color": {"red": 0, "blue": 1, "green": 0}}, {"name": "悠久山公園", "latitude": "37.4291666", "longitude": "138.8838888", "address": "新潟県長岡市", "color": {"red": 1, "blue": 0, "green": 1}}, {"name": "県民公園太閤山ランド", "latitude": "36.6925", "longitude": "137.1036111", "address": "富山県射水市", "color": {"red": 0, "blue": 1, "green": 0}}, {"name": "高岡古城公園", "latitude": "36.7491666", "longitude": "137.0225", "address": "富山県高岡市", "color": {"red": 1, "blue": 0, "green": 1}}, {"name": "兼六園", "latitude": "36.5619444", "longitude": "136.6619444", "address": "石川県金沢市", "color": {"red": 0, "blue": 0, "green": 0}}, {"name": "越前陶芸公園", "latitude": "35.9347222", "longitude": "136.0591666", "address": "福井県越前町", "color": {"red": 1, "blue": 1, "green": 0}}, {"name": "山梨県小瀬スポーツ公園", "latitude": "35.6230555", "longitude": "138.5875", "address": "山梨県甲府市", "color": {"red": 0, "blue": 1, "green": 1}}, {"name": "鳥居平やまびこ公園", "latitude": "36.0686111", "longitude": "138.0311111", "address": "長野県岡谷市", "color": {"red": 0, "blue": 0, "green": 1}}, {"name": "中央公園", "latitude": "36.2377777", "longitude": "137.9691666", "address": "長野県松本市", "color": {"red": 0, "blue": 0, "green": 1}}, {"name": "国営木曽三川公園", "latitude": "35.1475", "longitude": "136.6669444", "address": "岐阜県海津市", "color": {"red": 1, "blue": 1, "green": 0}}, {"name": "城山公園", "latitude": "36.1358333", "longitude": "137.2630555", "address": "岐阜県高山市", "color": {"red": 1, "blue": 1, "green": 0}}, {"name": "姫の沢公園", "latitude": "35.1191666", "longitude": "139.0497222", "address": "静岡県熱海市", "color": {"red": 1, "blue": 1, "green": 1}}, {"name": "城北公園", "latitude": "34.9894444", "longitude": "138.3786111", "address": "静岡県静岡市", "color": {"red": 1, "blue": 0, "green": 1}}, {"name": "舘山寺総合公園", "latitude": "34.7647222", "longitude": "137.6308333", "address": "静岡県浜松市", "color": {"red": 0, "blue": 0, "green": 0}}, {"name": "岡崎公園", "latitude": "34.9569444", "longitude": "137.1608333", "address": "愛知県岡崎市", "color": {"red": 0, "blue": 1, "green": 1}}, {"name": "東山公園", "latitude": "35.1558333", "longitude": "136.9805555", "address": "愛知県名古屋市", "color": {"red": 0, "blue": 1, "green": 0}}, {"name": "大高緑地", "latitude": "35.0638888", "longitude": "136.9547222", "address": "愛知県名古屋市", "color": {"red": 1, "blue": 0, "green": 0}}, {"name": "名城公園", "latitude": "35.1888888", "longitude": "136.9011111", "address": "愛知県名古屋市", "color": {"red": 0, "blue": 0, "green": 1}}, {"name": "落合公園", "latitude": "35.2711111", "longitude": "136.9902777", "address": "愛知県春日井市", "color": {"red": 1, "blue": 0, "green": 0}}, {"name": "中部台運動公園", "latitude": "34.5455555", "longitude": "136.5058333", "address": "三重県松阪市", "color": {"red": 0, "blue": 1, "green": 1}}, {"name": "金亀公園", "latitude": "35.2788888", "longitude": "136.2533333", "address": "滋賀県彦根市", "color": {"red": 1, "blue": 1, "green": 0}}, {"name": "湖岸緑地", "latitude": "35.3772222", "longitude": "136.2625", "address": "滋賀県大津市ほか", "color": {"red": 1, "blue": 1, "green": 1}}, {"name": "円山公園", "latitude": "35.0036111", "longitude": "135.7830555", "address": "京都府京都市", "color": {"red": 1, "blue": 0, "green": 0}}, {"name": "宝ヶ池公園", "latitude": "35.0577777", "longitude": "135.7830555", "address": "京都府京都市", "color": {"red": 1, "blue": 1, "green": 1}}, {"name": "京都府立立山総合運動公園", "latitude": "34.8711111", "longitude": "135.8047222", "address": "京都府宇治市", "color": {"red": 0, "blue": 1, "green": 1}}, {"name": "大阪城公園", "latitude": "34.6858333", "longitude": "135.5316666", "address": "大阪府大阪市", "color": {"red": 0, "blue": 1, "green": 1}}, {"name": "中之島公園", "latitude": "34.6916666", "longitude": "135.5102777", "address": "大阪府大阪市", "color": {"red": 0, "blue": 1, "green": 1}}, {"name": "服部緑地", "latitude": "34.7766666", "longitude": "135.4877777", "address": "大阪府豊中市", "color": {"red": 1, "blue": 1, "green": 0}}, {"name": "五月山緑地", "latitude": "34.8316666", "longitude": "135.4308333", "address": "大阪府池田市", "color": {"red": 1, "blue": 0, "green": 0}}, {"name": "大仙公園", "latitude": "34.5586111", "longitude": "135.4822222", "address": "大阪府堺市", "color": {"red": 1, "blue": 1, "green": 0}}, {"name": "中央公園", "latitude": "34.4691666", "longitude": "135.3936111", "address": "大阪府岸和田市", "color": {"red": 1, "blue": 1, "green": 1}}, {"name": "兵庫県立甲山森林公園", "latitude": "34.7738888", "longitude": "135.3344444", "address": "兵庫県西宮市", "color": {"red": 1, "blue": 0, "green": 0}}, {"name": "神戸市立須磨離宮公園", "latitude": "34.6530555", "longitude": "135.1169444", "address": "兵庫県神戸市", "color": {"red": 1, "blue": 1, "green": 0}}, {"name": "兵庫県立明石公園", "latitude": "34.6527777", "longitude": "134.9919444", "address": "兵庫県明石市", "color": {"red": 1, "blue": 0, "green": 0}}, {"name": "奈良公園", "latitude": "34.6822222", "longitude": "135.8469444", "address": "奈良県奈良市", "color": {"red": 0, "blue": 0, "green": 1}}, {"name": "平草原公園", "latitude": "33.6697222", "longitude": "135.3502777", "address": "和歌山県白浜町", "color": {"red": 0, "blue": 1, "green": 0}}, {"name": "打吹公園", "latitude": "35.4297222", "longitude": "133.8236111", "address": "鳥取県倉吉市", "color": {"red": 1, "blue": 1, "green": 0}}, {"name": "県立浜山公園", "latitude": "35.3775", "longitude": "132.7072222", "address": "島根県出雲市", "color": {"red": 0, "blue": 0, "green": 1}}, {"name": "後楽園", "latitude": "34.6672222", "longitude": "133.935", "address": "岡山県岡山市", "color": {"red": 0, "blue": 1, "green": 0}}, {"name": "平和記念公園", "latitude": "34.3936111", "longitude": "132.4522222", "address": "広島県広島市", "color": {"red": 0, "blue": 1, "green": 0}}, {"name": "中央公園", "latitude": "34.2494444", "longitude": "132.5644444", "address": "広島県呉市", "color": {"red": 0, "blue": 1, "green": 1}}, {"name": "維新百年記念公園", "latitude": "34.1563888", "longitude": "131.4383333", "address": "山口県山口市", "color": {"red": 0, "blue": 1, "green": 0}}, {"name": "常盤公園", "latitude": "33.9530555", "longitude": "131.2855555", "address": "山口県宇部市", "color": {"red": 0, "blue": 0, "green": 1}}, {"name": "徳島中央公園", "latitude": "34.075", "longitude": "134.5544444", "address": "徳島県徳島市", "color": {"red": 1, "blue": 0, "green": 0}}, {"name": "栗林公園", "latitude": "34.3294444", "longitude": "134.0427777", "address": "香川県高松市", "color": {"red": 1, "blue": 0, "green": 0}}, {"name": "城山公園", "latitude": "33.8444444", "longitude": "132.7661111", "address": "愛媛県松山市", "color": {"red": 0, "blue": 0, "green": 0}}, {"name": "南楽園", "latitude": "33.1325", "longitude": "132.5038888", "address": "愛媛県宇和島市", "color": {"red": 0, "blue": 0, "green": 0}}, {"name": "春野総合運動公園", "latitude": "33.5105555", "longitude": "133.5016666", "address": "高知県高知市", "color": {"red": 0, "blue": 1, "green": 1}}, {"name": "響灘緑地", "latitude": "33.9183333", "longitude": "130.7263888", "address": "福岡県北九州市", "color": {"red": 1, "blue": 0, "green": 0}}, {"name": "天地山公園", "latitude": "33.5952777", "longitude": "131.1097222", "address": "福岡県豊前市", "color": {"red": 0, "blue": 1, "green": 0}}, {"name": "海の中道海浜公園", "latitude": "33.6575", "longitude": "130.3536111", "address": "福岡県福岡市", "color": {"red": 0, "blue": 0, "green": 1}}, {"name": "南公園", "latitude": "33.5738888", "longitude": "130.3886111", "address": "福岡県福岡市", "color": {"red": 1, "blue": 1, "green": 0}}, {"name": "佐賀城公園", "latitude": "33.2458333", "longitude": "130.3002777", "address": "佐賀県佐賀市", "color": {"red": 1, "blue": 0, "green": 1}}, {"name": "上山公園", "latitude": "32.8402777", "longitude": "130.0438888", "address": "長崎県諫早市", "color": {"red": 1, "blue": 1, "green": 1}}, {"name": "水前寺江津湖公園", "latitude": "32.7902777", "longitude": "130.7344444", "address": "熊本県熊本市", "color": {"red": 1, "blue": 1, "green": 0}}, {"name": "うしぶか公園", "latitude": "32.2002777", "longitude": "130.0230555", "address": "熊本県天草市", "color": {"red": 0, "blue": 0, "green": 1}}, {"name": "高尾山自然公園", "latitude": "33.2122222", "longitude": "131.6544444", "address": "大分県大分市", "color": {"red": 1, "blue": 0, "green": 0}}, {"name": "宮崎県立総合運動公園", "latitude": "31.8252777", "longitude": "131.4505555", "address": "宮崎県宮崎市", "color": {"red": 0, "blue": 1, "green": 0}}, {"name": "特別史跡公園西都原古墳群", "latitude": "32.1172222", "longitude": "131.3883333", "address": "宮崎県西都市", "color": {"red": 0, "blue": 1, "green": 0}}, {"name": "吉野公園", "latitude": "31.6333333", "longitude": "130.5938888", "address": "鹿児島県鹿児島市", "color": {"red": 0, "blue": 0, "green": 1}}, {"name": "国営沖縄記念公園", "latitude": "26.6894444", "longitude": "127.8741666", "address": "沖縄県本部町", "color": {"red": 0, "blue": 1, "green": 0}}, {"name": "東平安名崎公園", "latitude": "24.7241666", "longitude": "125.4613888", "address": "沖縄県宮古島市", "color": {"red": 0, "blue": 0, "green": 1}}]}